~VERSION INFORMATION
 VERS.                2.0:   CWLS LOG ASCII STANDARD - VERSION 2.0
 WRAP.                 NO:   ONE LINE PER DEPTH STEP
~WELL INFORMATION
#MNEM.UNIT      DATA TYPE    INFORMATION
#----------   ------------   ------------------------------
 STRT.F         3500.0000:   START DEPTH
 STOP.F         6855.0000:   STOP DEPTH
 STEP.F            0.5000:   STEP LENGTH
 NULL.          -999.2500:   NO VALUE
 COMP.          AUSAR GEO:   COMPANY
 WELL.        TEST WELL 2:   WELL
 FLD .          TESTFIELD:   FIELD
 LOC .              0N 0E:   LOCATION
 CNTY.            NATRONA:   COUNTY
 STAT.            WYOMING:   STATE
 CTRY. UNITED STATES OF AMERICA:   COUNTRY
 SRVC.         LANE WELLS:   SERVICE COMPANY
 DATE.        23-MAR-1952:   LOGDATE
 API .     00000000000000:   API NUMBER
~CURVE INFORMATION
#MNEM.UNIT       API CODE    CURVE DESCRIPTION
#----------   ------------   ------------------------------
 DEPT.F                  :   
 GRN .GAPI   35 310 01 00:   GAMMA RAY
 NEUT.NAPI   35 330 01 00:   NEUTRON
~PARAMETER INFORMATION
#MNEM.UNIT          VALUE    DESCRIPTION
#----------   ------------   ------------------------------
 EKB .F         5195.0000:   Kelly bushing
 EGL .F         5184.0000:   Ground level
 EDF .F         5195.0000:   Drilling floor
 EPD .F            0.0000:   Permanent datum
 TD  .F         6861.0000:   Total depth
 CLNT.           AUSARGEO:   Client Code
 PD  .                 GL:   Permanent Datum
 DATE.        23-MAR-1952:   Date Logged [DD-MMM-YYYY]
 DD  .F              6861:   Depth driller
 DL  .F              6861:   Depth logger
 BLI .F              6855:   Bottom log interval
 TLI .F              3500:   Top log interval
 BSD1.F              6861:   Depth drilled with bit1
 DFT .                MUD:   Type fluid in hole
 ENGI.            GAMBERG:   Recorded By
 WITN.           GRIBBENS:   Witnessed by
 ORIG.         2.5" PRINT:   Origin of data
 UWI .     00000000000000:   Unique Well ID
~OTHER INFORMATION
~A  DEPT       GRN        NEUT  
 3500.0000   146.0000  -999.2500
 3500.5000   147.1111  -999.2500
 3501.0000   148.2222  -999.2500
 3501.5000   149.3333  -999.2500
 3502.0000   150.4444  -999.2500
 3502.5000   151.5555   110.0000 
 3503.0000   152.6666   111.1111
 3503.5000   150.4482    96.2963
 3504.0000   152.1616    85.7564
 3504.5000   153.3331    79.1065
 3505.0000   155.0277    91.1827
 3505.5000   156.0103   109.2363
 3506.0000   157.7265   128.4801
 3506.5000   162.1669   216.6572
 3507.0000   166.3280   202.1420
 3507.5000   170.2447   187.5282
 3508.0000   174.6896   172.2801
 3508.5000   175.9855   176.1566
 3509.0000   177.1670  -999.2500
 3509.5000   176.6698  -999.2500
